[
	{
		"name": "Mancos Brewing Company",
		"street": "484 Hwy 160 E Frontage Rd",
		"city": "Mancos",
		"zip": "81328",
		"url": "http://www.mancosbrewingcompany.com/",
		"pos": {
			"lat": "37.348185",
			"lng": "-108.283112"
		}
	},
	{
		"name": "Absolute Bakery & Cafe",
		"street": "110 S Main St",
		"city": "Mancos",
		"zip": "81328",
		"url": "http://www.absolutebakery.com",
		"pos": {
			"lat": "37.344816",
			"lng": "-108.289307"
		}
	},
	{
		"name": "Millwood Junction",
		"street": "101 Railroad Ave",
		"city": "Mancos",
		"zip": "81328",
		"url": "http://www.millwoodjunction.com",
		"pos": {
			"lat": "37.346996",
			"lng": "-108.289389"
		}
	},
	{
		"name": "Chavolo's Mexican Restaurant",
		"street": "121 Railroad Ave",
		"city": "Mancos",
		"zip": "81328",
		"url": "No URL available",
		"pos": {
			"lat": "37.34696",
			"lng": "-108.28781"
		}
	},
	{
		"name": "Mancos Pizza Co.",
		"street": "280 E Frontage Rd #5",
		"city": "Mancos",
		"zip": "81328",
		"url": "No URL available",
		"pos": {
			"lat": "37.347904",
			"lng": "-108.286781"
		}
	},
	{
		"name": "Ted's Tacos",
		"street": "41900 US-160",
		"city": "Mancos",
		"zip": "81328",
		"url": "No URL available",
		"pos": {
			"lat": "37.346899",
			"lng": "-108.286462"
		}
	},
	{
		"name": "Zuma Natural Foods",
		"street": "299 N Main St",
		"city": "Mancos",
		"zip": "81328",
		"url": "No URL available",
		"pos": {
			"lat": "37.347149",
			"lng": "-108.288872"
		}
	},
	{
		"name": "Hamburger Haven",
		"street": "108 Grand Ave",
		"city": "Mancos",
		"zip": "81328",
		"url": "No URL available",
		"pos": {
			"lat": "37.345306",
			"lng": "-108.288621"
		}
	},
	{
		"name": "Columbine Bar",
		"street": "123 Grand Ave",
		"city": "Mancos",
		"zip": "81328",
		"url": "No URL available",
		"pos": {
			"lat": "37.344919",
			"lng": "-108.289793"
		}
	},
	{
		"name": "Fahrenheit Coffee Roasters",
		"street": "201 Grand Ave",
		"city": "Mancos",
		"zip": "81328",
		"url": "No URL available",
		"pos": {
			"lat": "37.344842",
			"lng": "-108.290569"
		}
	}
]
